{
  "type": "FeatureCollection",
  "features": [
    {
      "type": "Feature",
      "properties": {
        "_umap_options": {
          "color": "Red",
          "labelDirection": "bottom"
        },
        "name": "X"
      },
      "geometry": {
        "type": "Point",
        "coordinates": [
          1.977786,
          42.492325
        ]
      }
    },
    {
      "type": "Feature",
      "properties": {
        "_umap_options": {
          "labelDirection": "bottom"
        },
        "name": "X"
      },
      "geometry": {
        "type": "Point",
        "coordinates": [
          1.977158,
          42.492341
        ]
      }
    },
    {
      "type": "Feature",
      "properties": {
        "_umap_options": {
          "showLabel": false,
          "labelDirection": "bottom"
        },
        "name": "x"
      },
      "geometry": {
        "type": "Point",
        "coordinates": [
          1.976989,
          42.495727
        ]
      }
    },
    {
      "type": "Feature",
      "properties": {
        "_umap_options": {
          "labelDirection": "bottom",
          "iconUrl": "/uploads/pictogram/star-24-white.png",
          "showLabel": null
        },
        "name": "X"
      },
      "geometry": {
        "type": "Point",
        "coordinates": [
          1.975509,
          42.49333
        ]
      }
    },
    {
      "type": "Feature",
      "properties": {
        "_umap_options": {
          "labelDirection": "bottom"
        },
        "name": "X"
      },
      "geometry": {
        "type": "Point",
        "coordinates": [
          1.975471,
          42.493357
        ]
      }
    },
    {
      "type": "Feature",
      "properties": {
        "_umap_options": {
          "labelDirection": "right",
          "showLabel": false
        },
        "name": "X"
      },
      "geometry": {
        "type": "Point",
        "coordinates": [
          1.975841,
          42.493045
        ]
      }
    },
    {
      "type": "Feature",
      "properties": {
        "name": "X"
      },
      "geometry": {
        "type": "Point",
        "coordinates": [
          1.971292,
          42.493183
        ]
      }
    },
    {
      "type": "Feature",
      "properties": {
        "name": "X"
      },
      "geometry": {
        "type": "Point",
        "coordinates": [
          1.977684,
          42.495475
        ]
      }
    },
    {
      "type": "Feature",
      "properties": {
        "name": "X"
      },
      "geometry": {
        "type": "Point",
        "coordinates": [
          1.976903,
          42.495667
        ]
      }
    },
    {
      "type": "Feature",
      "properties": {
        "name": "X"
      },
      "geometry": {
        "type": "Point",
        "coordinates": [
          1.97696,
          42.495717
        ]
      }
    },
    {
      "type": "Feature",
      "properties": {
        "name": "X"
      },
      "geometry": {
        "type": "Point",
        "coordinates": [
          1.976447,
          42.496181
        ]
      }
    },
    {
      "type": "Feature",
      "properties": {
        "name": "X"
      },
      "geometry": {
        "type": "Point",
        "coordinates": [
          1.972118,
          42.493322
        ]
      }
    },
    {
      "type": "Feature",
      "properties": {
        "name": "X"
      },
      "geometry": {
        "type": "Point",
        "coordinates": [
          1.976756,
          42.492412
        ]
      }
    },
    {
      "type": "Feature",
      "properties": {
        "name": "X"
      },
      "geometry": {
        "type": "Point",
        "coordinates": [
          1.977212,
          42.492333
        ]
      }
    },
    {
      "type": "Feature",
      "properties": {
        "name": "X"
      },
      "geometry": {
        "type": "Point",
        "coordinates": [
          1.972853,
          42.494316
        ]
      }
    },
    {
      "type": "Feature",
      "properties": {
        "name": "X"
      },
      "geometry": {
        "type": "Point",
        "coordinates": [
          1.972843,
          42.494289
        ]
      }
    },
    {
      "type": "Feature",
      "properties": {
        "name": "X"
      },
      "geometry": {
        "type": "Point",
        "coordinates": [
          1.972765,
          42.494305
        ]
      }
    },
    {
      "type": "Feature",
      "properties": {
        "name": "X"
      },
      "geometry": {
        "type": "Point",
        "coordinates": [
          1.972754,
          42.494421
        ]
      }
    },
    {
      "type": "Feature",
      "properties": {
        "name": "X"
      },
      "geometry": {
        "type": "Point",
        "coordinates": [
          1.974913,
          42.493332
        ]
      }
    },
    {
      "type": "Feature",
      "properties": {
        "name": "X"
      },
      "geometry": {
        "type": "Point",
        "coordinates": [
          1.974959,
          42.493284
        ]
      }
    },
    {
      "type": "Feature",
      "properties": {
        "name": "X"
      },
      "geometry": {
        "type": "Point",
        "coordinates": [
          1.976174,
          42.492974
        ]
      }
    },
    {
      "type": "Feature",
      "properties": {
        "name": "X"
      },
      "geometry": {
        "type": "Point",
        "coordinates": [
          1.975812,
          42.494166
        ]
      }
    },
    {
      "type": "Feature",
      "properties": {
        "name": "X"
      },
      "geometry": {
        "type": "Point",
        "coordinates": [
          1.975884,
          42.494506
        ]
      }
    },
    {
      "type": "Feature",
      "properties": {
        "name": "X"
      },
      "geometry": {
        "type": "Point",
        "coordinates": [
          1.975299,
          42.494546
        ]
      }
    },
    {
      "type": "Feature",
      "properties": {
        "name": "X"
      },
      "geometry": {
        "type": "Point",
        "coordinates": [
          1.974031,
          42.495179
        ]
      }
    },
    {
      "type": "Feature",
      "properties": {
        "name": "X"
      },
      "geometry": {
        "type": "Point",
        "coordinates": [
          1.973615,
          42.495517
        ]
      }
    },
    {
      "type": "Feature",
      "properties": {
        "name": "X"
      },
      "geometry": {
        "type": "Point",
        "coordinates": [
          1.973832,
          42.495357
        ]
      }
    },
    {
      "type": "Feature",
      "properties": {
        "name": "X"
      },
      "geometry": {
        "type": "Point",
        "coordinates": [
          1.971378,
          42.493152
        ]
      }
    },
    {
      "type": "Feature",
      "properties": {
        "name": "X"
      },
      "geometry": {
        "type": "Point",
        "coordinates": [
          1.971646,
          42.49331
        ]
      }
    },
    {
      "type": "Feature",
      "properties": {
        "name": "Vieille École"
      },
      "geometry": {
        "type": "Point",
        "coordinates": [
          1.976992,
          42.492244
        ]
      }
    },
    {
      "type": "Feature",
      "properties": {
        "_umap_options": {
          "labelDirection": "bottom",
          "iconUrl": "/uploads/pictogram/star-24-white.png",
          "showLabel": null
        },
        "name": "Video Maniac"
      },
      "geometry": {
        "type": "Point",
        "coordinates": [
          1.972738,
          42.493957
        ]
      }
    },
    {
      "type": "Feature",
      "properties": {
        "name": "Trip à Plat"
      },
      "geometry": {
        "type": "Point",
        "coordinates": [
          1.972384,
          42.494178
        ]
      }
    },
    {
      "type": "Feature",
      "properties": {
        "_umap_options": {
          "labelDirection": "bottom",
          "iconUrl": "/uploads/pictogram/star-24-white.png",
          "showLabel": null
        },
        "name": "Scato no Vice"
      },
      "geometry": {
        "type": "Point",
        "coordinates": [
          1.976319,
          42.496059
        ]
      }
    },
    {
      "type": "Feature",
      "properties": {
        "_umap_options": {
          "showLabel": null
        },
        "name": "Rose's Attack"
      },
      "geometry": {
        "type": "Point",
        "coordinates": [
          1.971837,
          42.493579
        ]
      }
    },
    {
      "type": "Feature",
      "properties": {
        "_umap_options": {
          "labelDirection": "bottom",
          "iconUrl": "/uploads/pictogram/star-24-white.png",
          "showLabel": null
        },
        "name": "Rien de Plus"
      },
      "geometry": {
        "type": "Point",
        "coordinates": [
          1.976997,
          42.492331
        ]
      }
    },
    {
      "type": "Feature",
      "properties": {
        "name": "Psy Crotte"
      },
      "geometry": {
        "type": "Point",
        "coordinates": [
          1.974052,
          42.495258
        ]
      }
    },
    {
      "type": "Feature",
      "properties": {
        "name": "Pouss Mouss"
      },
      "geometry": {
        "type": "Point",
        "coordinates": [
          1.971477,
          42.493169
        ]
      }
    },
    {
      "type": "Feature",
      "properties": {
        "_umap_options": {
          "labelDirection": "left",
          "iconUrl": "/uploads/pictogram/star-24-white.png",
          "showLabel": null
        },
        "name": "Pleasure Dome"
      },
      "geometry": {
        "type": "Point",
        "coordinates": [
          1.973017,
          42.494067
        ]
      }
    },
    {
      "type": "Feature",
      "properties": {
        "_umap_options": {
          "labelDirection": "bottom",
          "iconUrl": "/uploads/pictogram/star-24-white.png",
          "showLabel": null
        },
        "name": "Plat Team"
      },
      "geometry": {
        "type": "Point",
        "coordinates": [
          1.977029,
          42.492521
        ]
      }
    },
    {
      "type": "Feature",
      "properties": {
        "_umap_options": {
          "showLabel": null,
          "labelDirection": "bottom"
        },
        "name": "Papa Caca"
      },
      "geometry": {
        "type": "Point",
        "coordinates": [
          1.970665,
          42.494959
        ]
      }
    },
    {
      "type": "Feature",
      "properties": {
        "_umap_options": {
          "labelDirection": "bottom",
          "iconUrl": "/uploads/pictogram/star-24-white.png",
          "showLabel": null
        },
        "name": "On s'y Croirait"
      },
      "geometry": {
        "type": "Point",
        "coordinates": [
          1.973937,
          42.495204
        ]
      }
    },
    {
      "type": "Feature",
      "properties": {
        "_umap_options": {
          "showLabel": null,
          "labelDirection": "bottom"
        },
        "name": "Mange Plat"
      },
      "geometry": {
        "type": "Point",
        "coordinates": [
          1.974704,
          42.493557
        ]
      }
    },
    {
      "type": "Feature",
      "properties": {
        "_umap_options": {
          "color": "Blue",
          "labelDirection": "bottom",
          "iconUrl": "/uploads/pictogram/star-24-white.png",
          "showLabel": null
        },
        "name": "Lumière et Melancolie"
      },
      "geometry": {
        "type": "Point",
        "coordinates": [
          1.971461,
          42.493658
        ]
      }
    },
    {
      "type": "Feature",
      "properties": {
        "_umap_options": {
          "iconUrl": "/uploads/pictogram/star-24-white.png",
          "showLabel": null,
          "labelDirection": "right"
        },
        "name": "Love with a Dog"
      },
      "geometry": {
        "type": "Point",
        "coordinates": [
          1.972942,
          42.494239
        ]
      }
    },
    {
      "type": "Feature",
      "properties": {
        "_umap_options": {
          "labelDirection": "right",
          "iconUrl": "/uploads/pictogram/star-24-white.png",
          "showLabel": null
        },
        "name": "le Baron du Milieu"
      },
      "geometry": {
        "type": "Point",
        "coordinates": [
          1.970533,
          42.494801
        ]
      }
    },
    {
      "type": "Feature",
      "properties": {
        "name": "Laminak 3"
      },
      "geometry": {
        "type": "Point",
        "coordinates": [
          1.971992,
          42.493652
        ]
      }
    },
    {
      "type": "Feature",
      "properties": {
        "name": "la Quilla"
      },
      "geometry": {
        "type": "Point",
        "coordinates": [
          1.976048,
          42.493009
        ]
      }
    },
    {
      "type": "Feature",
      "properties": {
        "name": "la Couleuvre"
      },
      "geometry": {
        "type": "Point",
        "coordinates": [
          1.973513,
          42.493733
        ]
      }
    },
    {
      "type": "Feature",
      "properties": {
        "name": "la Belle Histoire"
      },
      "geometry": {
        "type": "Point",
        "coordinates": [
          1.976987,
          42.49221
        ]
      }
    },
    {
      "type": "Feature",
      "properties": {
        "_umap_options": {
          "labelDirection": "bottom",
          "showLabel": null
        },
        "name": "l'Invitation"
      },
      "geometry": {
        "type": "Point",
        "coordinates": [
          1.976898,
          42.495736
        ]
      }
    },
    {
      "type": "Feature",
      "properties": {
        "_umap_options": {
          "showLabel": null,
          "labelDirection": "bottom",
          "color": "Blue",
          "iconUrl": "/uploads/pictogram/star-24-white.png"
        },
        "name": "l'Huitre"
      },
      "geometry": {
        "type": "Point",
        "coordinates": [
          1.972963,
          42.493551
        ]
      }
    },
    {
      "type": "Feature",
      "properties": {
        "name": "J. Cramouille"
      },
      "geometry": {
        "type": "Point",
        "coordinates": [
          1.970166,
          42.495295
        ]
      }
    },
    {
      "type": "Feature",
      "properties": {
        "_umap_options": {
          "showLabel": null
        },
        "name": "Hugo Frais"
      },
      "geometry": {
        "type": "Point",
        "coordinates": [
          1.976485,
          42.496411
        ]
      }
    },
    {
      "type": "Feature",
      "properties": {
        "_umap_options": {
          "labelDirection": "bottom",
          "iconUrl": "/uploads/pictogram/star-24-white.png",
          "showLabel": null
        },
        "name": "Graal Patate"
      },
      "geometry": {
        "type": "Point",
        "coordinates": [
          1.976764,
          42.492305
        ]
      }
    },
    {
      "type": "Feature",
      "properties": {
        "_umap_options": {
          "labelDirection": "bottom"
        },
        "name": "Gothic"
      },
      "geometry": {
        "type": "Point",
        "coordinates": [
          1.97233,
          42.49414
        ]
      }
    },
    {
      "type": "Feature",
      "properties": {
        "name": "Good Feeling",
        "_umap_options": {
          "showLabel": false
        }
      },
      "geometry": {
        "type": "Point",
        "coordinates": [
          1.978462,
          42.492748
        ]
      }
    },
    {
      "type": "Feature",
      "properties": {
        "name": "Follow the Line"
      },
      "geometry": {
        "type": "Point",
        "coordinates": [
          1.97361,
          42.49541
        ]
      }
    },
    {
      "type": "Feature",
      "properties": {
        "_umap_options": {
          "color": "Blue",
          "iconUrl": "/uploads/pictogram/star-24-white.png",
          "showLabel": null
        },
        "name": "el Mezcladore"
      },
      "geometry": {
        "type": "Point",
        "coordinates": [
          1.97221,
          42.493245
        ]
      }
    },
    {
      "type": "Feature",
      "properties": {
        "_umap_options": {
          "labelDirection": "bottom",
          "iconUrl": "/uploads/pictogram/star-24-white.png",
          "showLabel": null
        },
        "name": "Double Jack"
      },
      "geometry": {
        "type": "Point",
        "coordinates": [
          1.972918,
          42.494237
        ]
      }
    },
    {
      "type": "Feature",
      "properties": {
        "name": "Dirty Sal"
      },
      "geometry": {
        "type": "Point",
        "coordinates": [
          1.976603,
          42.496312
        ]
      }
    },
    {
      "type": "Feature",
      "properties": {
        "name": "Débranche"
      },
      "geometry": {
        "type": "Point",
        "coordinates": [
          1.974744,
          42.493393
        ]
      }
    },
    {
      "type": "Feature",
      "properties": {
        "name": "Dans la matière"
      },
      "geometry": {
        "type": "Point",
        "coordinates": [
          1.971998,
          42.49383
        ]
      }
    },
    {
      "type": "Feature",
      "properties": {
        "_umap_options": {
          "labelDirection": "bottom",
          "iconUrl": "/uploads/pictogram/star-24-white.png",
          "showLabel": null
        },
        "name": "Corazón Partío"
      },
      "geometry": {
        "type": "Point",
        "coordinates": [
          1.975552,
          42.493351
        ]
      }
    },
    {
      "type": "Feature",
      "properties": {
        "name": "Cool"
      },
      "geometry": {
        "type": "Point",
        "coordinates": [
          1.976944,
          42.492331
        ]
      }
    },
    {
      "type": "Feature",
      "properties": {
        "name": "Carrière - B",
        "_umap_options": {
          "color": "Blue"
        }
      },
      "geometry": {
        "type": "Point",
        "coordinates": [
          1.972682,
          42.493405
        ]
      }
    },
    {
      "type": "Feature",
      "properties": {
        "name": "Carrière - A2"
      },
      "geometry": {
        "type": "Point",
        "coordinates": [
          1.9727,
          42.493583
        ]
      }
    },
    {
      "type": "Feature",
      "properties": {
        "name": "Bruxas"
      },
      "geometry": {
        "type": "Point",
        "coordinates": [
          1.972121,
          42.493428
        ]
      }
    },
    {
      "type": "Feature",
      "properties": {
        "_umap_options": {
          "showLabel": null,
          "labelDirection": "top"
        },
        "name": "Brouillon de Culture"
      },
      "geometry": {
        "type": "Point",
        "coordinates": [
          1.978228,
          42.493692
        ]
      }
    },
    {
      "type": "Feature",
      "properties": {
        "name": "Brain Training",
        "_umap_options": {
          "showLabel": false
        }
      },
      "geometry": {
        "type": "Point",
        "coordinates": [
          1.978432,
          42.492875
        ]
      }
    },
    {
      "type": "Feature",
      "properties": {
        "_umap_options": {
          "showLabel": null,
          "labelDirection": "bottom"
        },
        "name": "Bienvenidos"
      },
      "geometry": {
        "type": "Point",
        "coordinates": [
          1.972384,
          42.493646
        ]
      }
    },
    {
      "type": "Feature",
      "properties": {
        "_umap_options": {
          "labelDirection": "left",
          "iconUrl": "/uploads/pictogram/star-24-white.png",
          "showLabel": null
        },
        "name": "Berhault"
      },
      "geometry": {
        "type": "Point",
        "coordinates": [
          1.977035,
          42.492163
        ]
      }
    },
    {
      "type": "Feature",
      "properties": {
        "name": "Beauty Phal"
      },
      "geometry": {
        "type": "Point",
        "coordinates": [
          1.975535,
          42.494431
        ]
      }
    },
    {
      "type": "Feature",
      "properties": {
        "_umap_options": {
          "labelDirection": "left",
          "iconUrl": "/uploads/pictogram/star-24-white.png",
          "showLabel": null
        },
        "name": "Androgames"
      },
      "geometry": {
        "type": "Point",
        "coordinates": [
          1.972928,
          42.494075
        ]
      }
    },
    {
      "type": "Feature",
      "properties": {
        "_umap_options": {
          "labelDirection": "bottom",
          "iconUrl": "/uploads/pictogram/star-24-white.png",
          "showLabel": null
        },
        "name": "Amidal"
      },
      "geometry": {
        "type": "Point",
        "coordinates": [
          1.972309,
          42.494716
        ]
      }
    },
    {
      "type": "Feature",
      "properties": {
        "_umap_options": {
          "labelDirection": "left",
          "iconUrl": "/uploads/pictogram/star-24-white.png"
        },
        "name": "?"
      },
      "geometry": {
        "type": "Point",
        "coordinates": [
          1.973937,
          42.495414
        ]
      }
    },
    {
      "type": "Feature",
      "properties": {
        "_umap_options": {
          "labelDirection": "right",
          "showLabel": null,
          "iconUrl": "/uploads/pictogram/star-24-white.png"
        },
        "name": "?"
      },
      "geometry": {
        "type": "Point",
        "coordinates": [
          1.975771,
          42.492978
        ]
      }
    }
  ]
}