{
  "type": "FeatureCollection",
  "features": [
    {
      "type": "Feature",
      "properties": {
        "name": "Vicious Game",
        "description": "1\tVicious game\n[[http://exemple.fr|1\tVicious game]]\n2\tScato no vice",
        "_umap_options": {
          "showLabel": null,
          "labelDirection": "bottom",
          "iconUrl": "/uploads/pictogram/star-24-white.png"
        }
      },
      "geometry": {
        "type": "Point",
        "coordinates": [
          1.976278,
          42.496031
        ]
      }
    },
    {
      "type": "Feature",
      "properties": {
        "_umap_options": {
          "iconUrl": "/uploads/pictogram/star-24-white.png",
          "showLabel": false
        },
        "name": "X"
      },
      "geometry": {
        "type": "Point",
        "coordinates": [
          1.978599,
          42.492673
        ]
      }
    },
    {
      "type": "Feature",
      "properties": {
        "_umap_options": {
          "labelDirection": "right"
        },
        "name": "Abomination"
      },
      "geometry": {
        "type": "Point",
        "coordinates": [
          1.976796,
          42.494803
        ]
      }
    },
    {
      "type": "Feature",
      "properties": {
        "_umap_options": {
          "showLabel": null,
          "labelDirection": "bottom",
          "iconUrl": "/uploads/pictogram/star-24-white.png"
        },
        "description": "",
        "name": "la Proue"
      },
      "geometry": {
        "type": "Point",
        "coordinates": [
          1.986208,
          42.494839
        ]
      }
    },
    {
      "type": "Feature",
      "properties": {
        "_umap_options": {
          "labelDirection": "right",
          "iconUrl": "/uploads/pictogram/star-24-white.png"
        },
        "name": "l'Aliéné (DA)"
      },
      "geometry": {
        "type": "Point",
        "coordinates": [
          1.978572,
          42.492738
        ]
      }
    },
    {
      "type": "Feature",
      "properties": {
        "name": "X",
        "_umap_options": {
          "showLabel": false
        }
      },
      "geometry": {
        "type": "Point",
        "coordinates": [
          1.973966,
          42.49542
        ]
      }
    },
    {
      "type": "Feature",
      "properties": {
        "name": "X",
        "_umap_options": {
          "showLabel": false
        }
      },
      "geometry": {
        "type": "Point",
        "coordinates": [
          1.972628,
          42.494318
        ]
      }
    },
    {
      "type": "Feature",
      "properties": {
        "name": "X",
        "_umap_options": {
          "showLabel": false
        }
      },
      "geometry": {
        "type": "Point",
        "coordinates": [
          1.972987,
          42.494194
        ]
      }
    },
    {
      "type": "Feature",
      "properties": {
        "name": "X",
        "_umap_options": {
          "showLabel": false
        }
      },
      "geometry": {
        "type": "Point",
        "coordinates": [
          1.972727,
          42.494239
        ]
      }
    },
    {
      "type": "Feature",
      "properties": {
        "name": "X",
        "_umap_options": {
          "showLabel": false
        }
      },
      "geometry": {
        "type": "Point",
        "coordinates": [
          1.970469,
          42.494801
        ]
      }
    },
    {
      "type": "Feature",
      "properties": {
        "_umap_options": {
          "labelDirection": "bottom"
        },
        "name": "Vive la Morraine"
      },
      "geometry": {
        "type": "Point",
        "coordinates": [
          1.97027,
          42.49521
        ]
      }
    },
    {
      "type": "Feature",
      "properties": {
        "_umap_options": {
          "labelDirection": "bottom",
          "iconUrl": "/uploads/pictogram/star-24-white.png"
        },
        "name": "Traité de Démonologie"
      },
      "geometry": {
        "type": "Point",
        "coordinates": [
          1.970512,
          42.494781
        ]
      }
    },
    {
      "type": "Feature",
      "properties": {
        "_umap_options": {
          "showLabel": null,
          "labelDirection": "right",
          "iconUrl": "/uploads/pictogram/star-24-white.png"
        },
        "name": "Theorie du Chaos"
      },
      "geometry": {
        "type": "Point",
        "coordinates": [
          1.973317,
          42.494073
        ]
      }
    },
    {
      "type": "Feature",
      "properties": {
        "_umap_options": {
          "color": "Black",
          "labelDirection": "left"
        },
        "name": "Thanatodrome",
        "description": ""
      },
      "geometry": {
        "type": "Point",
        "coordinates": [
          1.971611,
          42.493622
        ]
      }
    },
    {
      "type": "Feature",
      "properties": {
        "name": "Sous le Nose"
      },
      "geometry": {
        "type": "Point",
        "coordinates": [
          1.97649,
          42.496371
        ]
      }
    },
    {
      "type": "Feature",
      "properties": {
        "_umap_options": {
          "showLabel": null,
          "labelDirection": "left",
          "iconUrl": "/uploads/pictogram/star-24-white.png"
        },
        "name": "Sing While You May"
      },
      "geometry": {
        "type": "Point",
        "coordinates": [
          1.972615,
          42.493395
        ]
      }
    },
    {
      "type": "Feature",
      "properties": {
        "_umap_options": {
          "labelDirection": "bottom",
          "iconUrl": "/uploads/pictogram/star-24-white.png"
        },
        "name": "Renaiss (DA)"
      },
      "geometry": {
        "type": "Point",
        "coordinates": [
          1.974763,
          42.493326
        ]
      }
    },
    {
      "type": "Feature",
      "properties": {
        "_umap_options": {
          "labelDirection": "left",
          "iconUrl": "/uploads/pictogram/star-24-white.png"
        },
        "name": "Psoas Hole"
      },
      "geometry": {
        "type": "Point",
        "coordinates": [
          1.970246,
          42.494815
        ]
      }
    },
    {
      "type": "Feature",
      "properties": {
        "_umap_options": {
          "labelDirection": "bottom",
          "iconUrl": "/uploads/pictogram/star-24-white.png"
        },
        "name": "Pac-Man"
      },
      "geometry": {
        "type": "Point",
        "coordinates": [
          1.976069,
          42.494483
        ]
      }
    },
    {
      "type": "Feature",
      "properties": {
        "_umap_options": {
          "color": "Black",
          "showLabel": null,
          "iconUrl": "/uploads/pictogram/star-24-white.png",
          "labelDirection": "top"
        },
        "name": "Nazgul"
      },
      "geometry": {
        "type": "Point",
        "coordinates": [
          1.971668,
          42.493658
        ]
      }
    },
    {
      "type": "Feature",
      "properties": {
        "_umap_options": {
          "labelDirection": "bottom",
          "iconUrl": "/uploads/pictogram/star-24-white.png",
          "showLabel": null
        },
        "name": "MoonBoard (DA)",
        "description": ""
      },
      "geometry": {
        "type": "Point",
        "coordinates": [
          1.975943,
          42.494164
        ]
      }
    },
    {
      "type": "Feature",
      "properties": {
        "_umap_options": {
          "labelDirection": "bottom",
          "iconUrl": "/uploads/pictogram/star-24-white.png"
        },
        "name": "Magic Instinct"
      },
      "geometry": {
        "type": "Point",
        "coordinates": [
          1.973902,
          42.49398
        ]
      }
    },
    {
      "type": "Feature",
      "properties": {
        "_umap_options": {
          "labelDirection": "left",
          "iconUrl": "/uploads/pictogram/star-24-white.png"
        },
        "name": "Little Death"
      },
      "geometry": {
        "type": "Point",
        "coordinates": [
          1.973001,
          42.494233
        ]
      }
    },
    {
      "type": "Feature",
      "properties": {
        "_umap_options": {
          "iconUrl": "/uploads/pictogram/star-24-white.png"
        },
        "name": "le Trou du Culte"
      },
      "geometry": {
        "type": "Point",
        "coordinates": [
          1.976965,
          42.495766
        ]
      }
    },
    {
      "type": "Feature",
      "properties": {
        "_umap_options": {
          "color": "Black",
          "labelDirection": "bottom",
          "iconUrl": "/uploads/pictogram/star-24-white.png"
        },
        "name": "le Tombeau de Damme Panc Ashash"
      },
      "geometry": {
        "type": "Point",
        "coordinates": [
          1.971456,
          42.493606
        ]
      }
    },
    {
      "type": "Feature",
      "properties": {
        "_umap_options": {
          "color": "Black",
          "showLabel": null,
          "iconUrl": "/uploads/pictogram/star-24-white.png",
          "labelDirection": "top"
        },
        "name": "le Seigneur des Anales"
      },
      "geometry": {
        "type": "Point",
        "coordinates": [
          1.971705,
          42.49366
        ]
      }
    },
    {
      "type": "Feature",
      "properties": {
        "_umap_options": {
          "showLabel": null,
          "labelDirection": "bottom"
        },
        "name": "le Pardon"
      },
      "geometry": {
        "type": "Point",
        "coordinates": [
          1.972904,
          42.493664
        ]
      }
    },
    {
      "type": "Feature",
      "properties": {
        "_umap_options": {
          "labelDirection": "bottom",
          "iconUrl": "/uploads/pictogram/star-24-white.png"
        },
        "name": "le Feu Oculte"
      },
      "geometry": {
        "type": "Point",
        "coordinates": [
          1.976987,
          42.496832
        ]
      }
    },
    {
      "type": "Feature",
      "properties": {
        "_umap_options": {
          "labelDirection": "left",
          "showLabel": null
        },
        "name": "le Cas de Force Majeur"
      },
      "geometry": {
        "type": "Point",
        "coordinates": [
          1.973569,
          42.495408
        ]
      }
    },
    {
      "type": "Feature",
      "properties": {
        "name": "la Lèvre"
      },
      "geometry": {
        "type": "Point",
        "coordinates": [
          1.973569,
          42.493775
        ]
      }
    },
    {
      "type": "Feature",
      "properties": {
        "_umap_options": {
          "color": "Black",
          "labelDirection": "right",
          "iconUrl": "/uploads/pictogram/star-24-white.png",
          "showLabel": null
        },
        "name": "la Fée Verte"
      },
      "geometry": {
        "type": "Point",
        "coordinates": [
          1.971815,
          42.493353
        ]
      }
    },
    {
      "type": "Feature",
      "properties": {
        "_umap_options": {
          "labelDirection": "bottom",
          "iconUrl": "/uploads/pictogram/star-24-white.png"
        },
        "name": "la Beauté de la Chose"
      },
      "geometry": {
        "type": "Point",
        "coordinates": [
          1.973921,
          42.493984
        ]
      }
    },
    {
      "type": "Feature",
      "properties": {
        "_umap_options": {
          "labelDirection": "bottom",
          "iconUrl": "/uploads/pictogram/star-24-white.png"
        },
        "name": "la 5ª Sinfonía"
      },
      "geometry": {
        "type": "Point",
        "coordinates": [
          1.972633,
          42.494417
        ]
      }
    },
    {
      "type": "Feature",
      "properties": {
        "_umap_options": {
          "showLabel": null,
          "labelDirection": "right"
        },
        "name": "l'Oeuvrette"
      },
      "geometry": {
        "type": "Point",
        "coordinates": [
          1.974012,
          42.494496
        ]
      }
    },
    {
      "type": "Feature",
      "properties": {
        "_umap_options": {
          "labelDirection": "bottom",
          "iconUrl": "/uploads/pictogram/star-24-white.png"
        },
        "name": "Kebab Traum (DA)"
      },
      "geometry": {
        "type": "Point",
        "coordinates": [
          1.971968,
          42.493733
        ]
      }
    },
    {
      "type": "Feature",
      "properties": {
        "_umap_options": {
          "labelDirection": "left",
          "showLabel": null
        },
        "name": "Jewels in the Shadow"
      },
      "geometry": {
        "type": "Point",
        "coordinates": [
          1.973044,
          42.494042
        ]
      }
    },
    {
      "type": "Feature",
      "properties": {
        "_umap_options": {
          "labelDirection": "bottom"
        },
        "name": "I Shot Sarconazy"
      },
      "geometry": {
        "type": "Point",
        "coordinates": [
          1.970552,
          42.494348
        ]
      }
    },
    {
      "type": "Feature",
      "properties": {
        "_umap_options": {
          "labelDirection": "right",
          "iconUrl": "/uploads/pictogram/star-24-white.png",
          "showLabel": null
        },
        "name": "He Man"
      },
      "geometry": {
        "type": "Point",
        "coordinates": [
          1.976013,
          42.493074
        ]
      }
    },
    {
      "type": "Feature",
      "properties": {
        "_umap_options": {
          "labelDirection": "bottom",
          "iconUrl": "/uploads/pictogram/star-24-white.png",
          "showLabel": null
        },
        "name": "Harmonium (DA)"
      },
      "geometry": {
        "type": "Point",
        "coordinates": [
          1.976053,
          42.494481
        ]
      }
    },
    {
      "type": "Feature",
      "properties": {
        "_umap_options": {
          "showLabel": null,
          "labelDirection": "bottom"
        },
        "name": "Flagellation"
      },
      "geometry": {
        "type": "Point",
        "coordinates": [
          1.972902,
          42.494239
        ]
      }
    },
    {
      "type": "Feature",
      "properties": {
        "_umap_options": {
          "labelDirection": "left",
          "iconUrl": "/uploads/pictogram/star-24-white.png"
        },
        "name": "Eternal Flame"
      },
      "geometry": {
        "type": "Point",
        "coordinates": [
          1.975401,
          42.494441
        ]
      }
    },
    {
      "type": "Feature",
      "properties": {
        "_umap_options": {
          "color": "Black",
          "labelDirection": "right",
          "iconUrl": "/uploads/pictogram/star-24-white.png"
        },
        "name": "el Hadjiz"
      },
      "geometry": {
        "type": "Point",
        "coordinates": [
          1.971724,
          42.493593
        ]
      }
    },
    {
      "type": "Feature",
      "properties": {
        "_umap_options": {
          "showLabel": null,
          "labelDirection": "bottom",
          "iconUrl": "/uploads/pictogram/star-24-white.png"
        },
        "name": "Créatura"
      },
      "geometry": {
        "type": "Point",
        "coordinates": [
          1.974618,
          42.493557
        ]
      }
    },
    {
      "type": "Feature",
      "properties": {
        "_umap_options": {
          "color": "Black",
          "labelDirection": "left",
          "iconUrl": "/uploads/pictogram/star-24-white.png",
          "showLabel": null
        },
        "name": "Cerdagne Air Line"
      },
      "geometry": {
        "type": "Point",
        "coordinates": [
          1.971437,
          42.493175
        ]
      }
    },
    {
      "type": "Feature",
      "properties": {
        "_umap_options": {
          "labelDirection": "bottom",
          "showLabel": null
        },
        "name": "Bottant Botton"
      },
      "geometry": {
        "type": "Point",
        "coordinates": [
          1.973521,
          42.493951
        ]
      }
    },
    {
      "type": "Feature",
      "properties": {
        "_umap_options": {
          "labelDirection": "bottom",
          "showLabel": null
        },
        "name": "Bob's you're Oncle"
      },
      "geometry": {
        "type": "Point",
        "coordinates": [
          1.972942,
          42.494063
        ]
      }
    },
    {
      "type": "Feature",
      "properties": {
        "_umap_options": {
          "showLabel": null,
          "labelDirection": "right"
        },
        "name": "Black Bloc"
      },
      "geometry": {
        "type": "Point",
        "coordinates": [
          1.9721,
          42.493363
        ]
      }
    },
    {
      "type": "Feature",
      "properties": {
        "_umap_options": {
          "labelDirection": "bottom",
          "iconUrl": "/uploads/pictogram/star-24-white.png"
        },
        "name": "Big Mac"
      },
      "geometry": {
        "type": "Point",
        "coordinates": [
          1.972974,
          42.494158
        ]
      }
    },
    {
      "type": "Feature",
      "properties": {
        "_umap_options": {
          "labelDirection": "left",
          "iconUrl": "/uploads/pictogram/star-24-white.png",
          "showLabel": null
        },
        "name": "Agathe the Poison"
      },
      "geometry": {
        "type": "Point",
        "coordinates": [
          1.972971,
          42.49416
        ]
      }
    },
    {
      "type": "Feature",
      "properties": {
        "_umap_options": {
          "showLabel": null,
          "labelDirection": "right",
          "iconUrl": "/uploads/pictogram/star-24-white.png"
        },
        "name": "Accarian Troubadour (DA)"
      },
      "geometry": {
        "type": "Point",
        "coordinates": [
          1.972741,
          42.493616
        ]
      }
    },
    {
      "type": "Feature",
      "properties": {
        "_umap_options": {
          "color": "Black",
          "labelDirection": "bottom",
          "iconUrl": "/uploads/pictogram/star-24-white.png"
        },
        "name": "Absinthe"
      },
      "geometry": {
        "type": "Point",
        "coordinates": [
          1.971786,
          42.493341
        ]
      }
    },
    {
      "type": "Feature",
      "properties": {
        "_umap_options": {
          "iconUrl": "/uploads/pictogram/star-24-white.png",
          "showLabel": null,
          "labelDirection": "bottom"
        },
        "name": "21 Grammes"
      },
      "geometry": {
        "type": "Point",
        "coordinates": [
          1.974634,
          42.493557
        ]
      }
    },
    {
      "type": "Feature",
      "properties": {
        "_umap_options": {
          "labelDirection": "bottom",
          "iconUrl": "/uploads/pictogram/star-24-white.png"
        },
        "name": "?"
      },
      "geometry": {
        "type": "Point",
        "coordinates": [
          1.970906,
          42.494894
        ]
      }
    },
    {
      "type": "Feature",
      "properties": {
        "_umap_options": {
          "iconUrl": "/uploads/pictogram/star-24-white.png"
        },
        "name": "?"
      },
      "geometry": {
        "type": "Point",
        "coordinates": [
          1.979207,
          42.492697
        ]
      }
    }
  ]
}